{"type":"FeatureCollection","features":[{"type":"Feature","properties":{"id":541,"name":"Chef Express","description":""},"geometry":{"type":"Point","coordinates":[10.3978717,43.7085567]}},{"type":"Feature","properties":{"id":542,"name":"La Petite","description":""},"geometry":{"type":"Point","coordinates":[10.4177417,43.7101757]}},{"type":"Feature","properties":{"id":543,"name":"Darsena Caf\u00e8","description":""},"geometry":{"type":"Point","coordinates":[10.3866878,43.7021221]}},{"type":"Feature","properties":{"id":544,"name":"House Caf\u00e8","description":""},"geometry":{"type":"Point","coordinates":[10.3991341,43.7121967]}},{"type":"Feature","properties":{"id":545,"name":"BARart","description":""},"geometry":{"type":"Point","coordinates":[10.4207784,43.7265378]}},{"type":"Feature","properties":{"id":546,"name":"La Tazza d","description":""},"geometry":{"type":"Point","coordinates":[10.4029019,43.7143486]}},{"type":"Feature","properties":{"id":540,"name":"Il Ciliegio","description":"","noDetails":true,"color":"#0000ff"},"geometry":{"type":"Point","coordinates":[10.391627,43.7165781]}},{"type":"Feature","properties":{"id":531,"name":"Il Capodaglio","description":""},"geometry":{"type":"Point","coordinates":[10.4004205,43.7131001]}},{"type":"Feature","properties":{"id":532,"name":"Chupito bar","description":""},"geometry":{"type":"Point","coordinates":[10.3999638,43.7001552]}},{"type":"Feature","properties":{"id":533,"name":"Bar Settimelli","description":""},"geometry":{"type":"Point","coordinates":[10.4023204,43.7173741]}},{"type":"Feature","properties":{"id":534,"name":"Il borghetto","description":""},"geometry":{"type":"Point","coordinates":[10.4124601,43.7123471]}},{"type":"Feature","properties":{"id":535,"name":"Chupiteria","description":""},"geometry":{"type":"Point","coordinates":[10.4028813,43.7161542]}},{"type":"Feature","properties":{"id":536,"name":"Waiting","description":""},"geometry":{"type":"Point","coordinates":[10.4029495,43.7161375]}},{"type":"Feature","properties":{"id":537,"name":"GAP","description":""},"geometry":{"type":"Point","coordinates":[10.402792,43.7165512]}},{"type":"Feature","properties":{"id":527,"name":"Pick A Flower","description":""},"geometry":{"type":"Point","coordinates":[10.3992579,43.7170369]}},{"type":"Feature","properties":{"id":538,"name":"Caff\u00e8 Parlascio","description":""},"geometry":{"type":"Point","coordinates":[10.4022077,43.7218401]}},{"type":"Feature","properties":{"id":528,"name":"Il baronetto","description":""},"geometry":{"type":"Point","coordinates":[10.3995312,43.7053337]}},{"type":"Feature","properties":{"id":539,"name":"Break Lunch SRL","description":""},"geometry":{"type":"Point","coordinates":[10.4184071,43.7255133]}},{"type":"Feature","properties":{"id":529,"name":"La Paperina","description":""},"geometry":{"type":"Point","coordinates":[10.4043507,43.7271962]}},{"type":"Feature","properties":{"id":530,"name":"Mim\u00ec Caf\u00e8","description":""},"geometry":{"type":"Point","coordinates":[10.402912,43.7179199]}},{"type":"Feature","properties":{"id":520,"name":"La Bodeguita","description":""},"geometry":{"type":"Point","coordinates":[10.4158591,43.7261744]}},{"type":"Feature","properties":{"id":521,"name":"Sunny Caff\u00e8","description":""},"geometry":{"type":"Point","coordinates":[10.4022346,43.7240114]}},{"type":"Feature","properties":{"id":522,"name":"Bar San Domenico","description":""},"geometry":{"type":"Point","coordinates":[10.4015262,43.7223352]}},{"type":"Feature","properties":{"id":512,"name":"Arcalle","description":""},"geometry":{"type":"Point","coordinates":[10.3974493,43.7198369]}},{"type":"Feature","properties":{"id":523,"name":"Jungle","description":""},"geometry":{"type":"Point","coordinates":[10.4015626,43.7169079]}},{"type":"Feature","properties":{"id":513,"name":"Bar Pasticceria Lilli","description":""},"geometry":{"type":"Point","coordinates":[10.4302324,43.7106626]}},{"type":"Feature","properties":{"id":524,"name":"Caff\u00e9 teatro","description":""},"geometry":{"type":"Point","coordinates":[10.4035662,43.7164019]}},{"type":"Feature","properties":{"id":514,"name":"Bar Rossi","description":""},"geometry":{"type":"Point","coordinates":[10.4192487,43.7252642]}},{"type":"Feature","properties":{"id":525,"name":"Bar Nedo","description":""},"geometry":{"type":"Point","coordinates":[10.3896938,43.7268555]}},{"type":"Feature","properties":{"id":515,"name":"Bar Mocambo","description":""},"geometry":{"type":"Point","coordinates":[10.4016528,43.7139165]}},{"type":"Feature","properties":{"id":526,"name":"Leningrad Caf\u00e9","description":""},"geometry":{"type":"Point","coordinates":[10.4054849,43.7133644]}},{"type":"Feature","properties":{"id":516,"name":"Bosco delle Fate","description":""},"geometry":{"type":"Point","coordinates":[10.4016469,43.7176743]}},{"type":"Feature","properties":{"id":517,"name":"Sweet &#038; Sour","description":""},"geometry":{"type":"Point","coordinates":[10.4033034,43.7161348]}},{"type":"Feature","properties":{"id":518,"name":"Caffetteria Kandinsky","description":""},"geometry":{"type":"Point","coordinates":[10.4205377,43.710351]}},{"type":"Feature","properties":{"id":519,"name":"Speedy Bar","description":""},"geometry":{"type":"Point","coordinates":[10.4163577,43.7194585]}},{"type":"Feature","properties":{"id":509,"name":"Bar La Loggia","description":""},"geometry":{"type":"Point","coordinates":[10.3986273,43.7101895]}},{"type":"Feature","properties":{"id":499,"name":"The Lounge Cafe","description":""},"geometry":{"type":"Point","coordinates":[10.4018105,43.717105]}},{"type":"Feature","properties":{"id":510,"name":"Bar &#8220;La caffetteria&#8221;","description":""},"geometry":{"type":"Point","coordinates":[10.4050048,43.7130482]}},{"type":"Feature","properties":{"id":500,"name":"Bar Duomo","description":""},"geometry":{"type":"Point","coordinates":[10.3967277,43.7222828]}},{"type":"Feature","properties":{"id":511,"name":"Il paracadutista","description":""},"geometry":{"type":"Point","coordinates":[10.4060863,43.7283576]}},{"type":"Feature","properties":{"id":501,"name":"Bar La Torre","description":""},"geometry":{"type":"Point","coordinates":[10.3962904,43.7222826]}},{"type":"Feature","properties":{"id":502,"name":"Bazeel","description":""},"geometry":{"type":"Point","coordinates":[10.4019553,43.7164138]}},{"type":"Feature","properties":{"id":503,"name":"Circolo ARCI Rinascita","description":""},"geometry":{"type":"Point","coordinates":[10.4098,43.7129626]}},{"type":"Feature","properties":{"id":504,"name":"Via Vai","description":""},"geometry":{"type":"Point","coordinates":[10.4035316,43.7162909]}},{"type":"Feature","properties":{"id":505,"name":"Caff\u00e8 Gambrinus","description":""},"geometry":{"type":"Point","coordinates":[10.3986158,43.7098112]}},{"type":"Feature","properties":{"id":506,"name":"Haring Caff\u00e8","description":""},"geometry":{"type":"Point","coordinates":[10.3983559,43.7113098]}},{"type":"Feature","properties":{"id":507,"name":"Bar Enrico","description":""},"geometry":{"type":"Point","coordinates":[10.3822971,43.7173413]}},{"type":"Feature","properties":{"id":508,"name":"Bar Nerone","description":""},"geometry":{"type":"Point","coordinates":[10.4018477,43.7227182]}},{"type":"Feature","properties":{"id":498,"name":"Caff\u00e8 della Berlina","description":""},"geometry":{"type":"Point","coordinates":[10.403789,43.7158987]}},{"type":"Feature","properties":{"id":497,"name":"La Borsa","description":""},"geometry":{"type":"Point","coordinates":[10.3995243,43.7110461]}}]}