{"type":"FeatureCollection","features":[{"type":"Feature","properties":{"id":540,"name":"Il Ciliegio","description":""},"geometry":{"type":"Point","coordinates":[10.391627,43.7165781]}},{"type":"Feature","properties":{"id":541,"name":"Chef Express","description":""},"geometry":{"type":"Point","coordinates":[10.3978717,43.7085567]}},{"type":"Feature","properties":{"id":542,"name":"La Petite","description":""},"geometry":{"type":"Point","coordinates":[10.4177417,43.7101757]}},{"type":"Feature","properties":{"id":543,"name":"Darsena Caf\u00e8","description":""},"geometry":{"type":"Point","coordinates":[10.3866878,43.7021221]}},{"type":"Feature","properties":{"id":544,"name":"House Caf\u00e8","description":""},"geometry":{"type":"Point","coordinates":[10.3991341,43.7121967]}},{"type":"Feature","properties":{"id":545,"name":"BARart","description":""},"geometry":{"type":"Point","coordinates":[10.4207784,43.7265378]}},{"type":"Feature","properties":{"id":546,"name":"La Tazza d","description":""},"geometry":{"type":"Point","coordinates":[10.4029019,43.7143486]}},{"type":"Feature","properties":{"id":537,"name":"GAP","description":""},"geometry":{"type":"Point","coordinates":[10.402792,43.7165512]}},{"type":"Feature","properties":{"id":527,"name":"Pick A Flower","description":""},"geometry":{"type":"Point","coordinates":[10.3992579,43.7170369]}},{"type":"Feature","properties":{"id":538,"name":"Caff\u00e8 Parlascio","description":""},"geometry":{"type":"Point","coordinates":[10.4022077,43.7218401]}}]}