{"type":"FeatureCollection","features":[{"type":"Feature","properties":{"id":540,"name":"Il Ciliegio","description":""},"geometry":{"type":"Point","coordinates":[10.391627,43.7165781]}},{"type":"Feature","properties":{"id":541,"name":"Chef Express","description":""},"geometry":{"type":"Point","coordinates":[10.3978717,43.7085567]}},{"type":"Feature","properties":{"id":542,"name":"La Petite","description":""},"geometry":{"type":"Point","coordinates":[10.4177417,43.7101757]}},{"type":"Feature","properties":{"id":543,"name":"Darsena Caf\u00e8","description":""},"geometry":{"type":"Point","coordinates":[10.3866878,43.7021221]}},{"type":"Feature","properties":{"id":544,"name":"House Caf\u00e8","description":""},"geometry":{"type":"Point","coordinates":[10.3991341,43.7121967]}},{"type":"Feature","properties":{"id":545,"name":"BARart","description":""},"geometry":{"type":"Point","coordinates":[10.4207784,43.7265378]}},{"type":"Feature","properties":{"id":546,"name":"La Tazza d","description":""},"geometry":{"type":"Point","coordinates":[10.4029019,43.7143486]}},{"type":"Feature","properties":{"id":528,"name":"Il baronetto","description":""},"geometry":{"type":"Point","coordinates":[10.3995312,43.7053337]}},{"type":"Feature","properties":{"id":539,"name":"Break Lunch SRL","description":""},"geometry":{"type":"Point","coordinates":[10.4184071,43.7255133]}},{"type":"Feature","properties":{"id":529,"name":"La Paperina","description":""},"geometry":{"type":"Point","coordinates":[10.4043507,43.7271962]}}]}