{"type":"FeatureCollection","features":[{"type":"Feature","properties":{"id":488,"name":"Ambarab\u00e0","description":""},"geometry":{"type":"Point","coordinates":[10.4000732,43.7171594]}},{"type":"Feature","properties":{"id":489,"name":"Forno dell","description":""},"geometry":{"type":"Point","coordinates":[10.3969022,43.7101534]}},{"type":"Feature","properties":{"id":490,"name":"La taverna di Emma","description":""},"geometry":{"type":"Point","coordinates":[10.3915815,43.7245412]}},{"type":"Feature","properties":{"id":491,"name":"Pizzeria Ungherese","description":""},"geometry":{"type":"Point","coordinates":[10.4033399,43.7259617]}},{"type":"Feature","properties":{"id":492,"name":"Namaste India","description":""},"geometry":{"type":"Point","coordinates":[10.4008861,43.7141704]}},{"type":"Feature","properties":{"id":493,"name":"Bagus","description":""},"geometry":{"type":"Point","coordinates":[10.3999102,43.7146864]}},{"type":"Feature","properties":{"id":494,"name":"La Scaletta","description":""},"geometry":{"type":"Point","coordinates":[10.3894184,43.7272775]}},{"type":"Feature","properties":{"id":484,"name":"L","description":""},"geometry":{"type":"Point","coordinates":[10.3965292,43.7219276]}},{"type":"Feature","properties":{"id":495,"name":"Il Bistrot","description":""},"geometry":{"type":"Point","coordinates":[10.4012517,43.7143104]}},{"type":"Feature","properties":{"id":485,"name":"da","description":""},"geometry":{"type":"Point","coordinates":[10.4032495,43.7259901]}},{"type":"Feature","properties":{"id":496,"name":"Pizzeria SM","description":""},"geometry":{"type":"Point","coordinates":[10.4024765,43.7197507]}},{"type":"Feature","properties":{"id":486,"name":"Lo Schiaccianoci","description":""},"geometry":{"type":"Point","coordinates":[10.4004167,43.7093719]}},{"type":"Feature","properties":{"id":487,"name":"Al Signor Mimmo","description":""},"geometry":{"type":"Point","coordinates":[10.4003848,43.7176573]}},{"type":"Feature","properties":{"id":477,"name":"Pizzeria da Pancino","description":""},"geometry":{"type":"Point","coordinates":[10.4022237,43.7104458]}},{"type":"Feature","properties":{"id":478,"name":"La Bottega della pizza","description":""},"geometry":{"type":"Point","coordinates":[10.4015823,43.7169834]}},{"type":"Feature","properties":{"id":479,"name":"Autogrill \u2013 Ciao","description":""},"geometry":{"type":"Point","coordinates":[10.4301239,43.7077041]}},{"type":"Feature","properties":{"id":469,"name":"Pizzeria Da Lara","description":""},"geometry":{"type":"Point","coordinates":[10.4096073,43.7148231]}},{"type":"Feature","properties":{"id":480,"name":"Circolo ARCI L","description":""},"geometry":{"type":"Point","coordinates":[10.4052332,43.7157268]}},{"type":"Feature","properties":{"id":470,"name":"Pizzeria Oasi","description":""},"geometry":{"type":"Point","coordinates":[10.4281123,43.7229021]}},{"type":"Feature","properties":{"id":481,"name":"Pizzamania O","description":""},"geometry":{"type":"Point","coordinates":[10.410189,43.712494]}},{"type":"Feature","properties":{"id":471,"name":"Il Fornaccio","description":""},"geometry":{"type":"Point","coordinates":[10.4020429,43.7234069]}},{"type":"Feature","properties":{"id":482,"name":"Pizzeria Da Matteo","description":""},"geometry":{"type":"Point","coordinates":[10.3972388,43.7180065]}},{"type":"Feature","properties":{"id":472,"name":"Ristorante Trattoria da Mario","description":""},"geometry":{"type":"Point","coordinates":[10.4018572,43.7232208]}},{"type":"Feature","properties":{"id":483,"name":"Zero Zero","description":""},"geometry":{"type":"Point","coordinates":[10.4018106,43.7177194]}},{"type":"Feature","properties":{"id":473,"name":"La Pergoletta","description":""},"geometry":{"type":"Point","coordinates":[10.404315,43.7160503]}},{"type":"Feature","properties":{"id":474,"name":"Pizzeria &#8220;Le Mura&#8221;","description":""},"geometry":{"type":"Point","coordinates":[10.401604,43.7220541]}},{"type":"Feature","properties":{"id":475,"name":"La taverna di Pulcinella","description":""},"geometry":{"type":"Point","coordinates":[10.4005541,43.7147677]}},{"type":"Feature","properties":{"id":476,"name":"La Greppia","description":""},"geometry":{"type":"Point","coordinates":[10.4214193,43.7205098]}},{"type":"Feature","properties":{"id":456,"name":"Il mio Capriccio","description":""},"geometry":{"type":"Point","coordinates":[10.4239116,43.7104374]}},{"type":"Feature","properties":{"id":467,"name":"Pizzeria Da Filippo","description":""},"geometry":{"type":"Point","coordinates":[10.3996483,43.7088264]}},{"type":"Feature","properties":{"id":457,"name":"Santa Maria","description":""},"geometry":{"type":"Point","coordinates":[10.3973803,43.7216352]}},{"type":"Feature","properties":{"id":468,"name":"La Griglia di Varrone","description":""},"geometry":{"type":"Point","coordinates":[10.3893507,43.6991698]}},{"type":"Feature","properties":{"id":458,"name":"Toscana","description":""},"geometry":{"type":"Point","coordinates":[10.3969338,43.7215969]}},{"type":"Feature","properties":{"id":459,"name":"Osteria Rossini","description":""},"geometry":{"type":"Point","coordinates":[10.3978605,43.717858]}},{"type":"Feature","properties":{"id":460,"name":"Nonna Rosa","description":""},"geometry":{"type":"Point","coordinates":[10.3972591,43.7179265]}},{"type":"Feature","properties":{"id":461,"name":"Osteria La Toscana","description":""},"geometry":{"type":"Point","coordinates":[10.3999717,43.7184866]}},{"type":"Feature","properties":{"id":462,"name":"Turiddo","description":""},"geometry":{"type":"Point","coordinates":[10.3999174,43.7178492]}},{"type":"Feature","properties":{"id":463,"name":"Sosta dei Cavelieri","description":""},"geometry":{"type":"Point","coordinates":[10.3998175,43.7184008]}},{"type":"Feature","properties":{"id":464,"name":"Ir Tegame Spaghetteria","description":""},"geometry":{"type":"Point","coordinates":[10.4038028,43.7162005]}},{"type":"Feature","properties":{"id":465,"name":"Antica trattoria il Campano","description":""},"geometry":{"type":"Point","coordinates":[10.4009698,43.7171728]}},{"type":"Feature","properties":{"id":455,"name":"Le Giare","description":""},"geometry":{"type":"Point","coordinates":[10.4119662,43.704632]}},{"type":"Feature","properties":{"id":466,"name":"Piccolo Mondo","description":""},"geometry":{"type":"Point","coordinates":[10.4002983,43.7086572]}},{"type":"Feature","properties":{"id":445,"name":"Trattoria Da Bruno","description":""},"geometry":{"type":"Point","coordinates":[10.4021151,43.7231876]}},{"type":"Feature","properties":{"id":446,"name":"La Mangiatoia","description":""},"geometry":{"type":"Point","coordinates":[10.4206027,43.7073921]}},{"type":"Feature","properties":{"id":447,"name":"Pizzeria L","description":""},"geometry":{"type":"Point","coordinates":[10.3997199,43.7145351]}},{"type":"Feature","properties":{"id":448,"name":"La Spigolatrice","description":""},"geometry":{"type":"Point","coordinates":[10.406115,43.7268167]}},{"type":"Feature","properties":{"id":449,"name":"La Tana","description":""},"geometry":{"type":"Point","coordinates":[10.39996,43.7183107]}},{"type":"Feature","properties":{"id":450,"name":"Pizza a GoGo","description":""},"geometry":{"type":"Point","coordinates":[10.4221467,43.7290885]}},{"type":"Feature","properties":{"id":440,"name":"Stelio","description":"<p>Trattoria Stelio &#8211; Cucina tipica toscana<\/p>\n"},"geometry":{"type":"Point","coordinates":[10.3985478,43.717915]}},{"type":"Feature","properties":{"id":451,"name":"La Lupa Ghiotta","description":""},"geometry":{"type":"Point","coordinates":[10.3999904,43.7098409]}},{"type":"Feature","properties":{"id":441,"name":"Stazione di ristoro Leopolda","description":""},"geometry":{"type":"Point","coordinates":[10.4059693,43.7092711]}},{"type":"Feature","properties":{"id":452,"name":"osteria","description":""},"geometry":{"type":"Point","coordinates":[10.4199449,43.726421]}},{"type":"Feature","properties":{"id":442,"name":"Ristorante Rosticceria Pizzera Neccio","description":""},"geometry":{"type":"Point","coordinates":[10.3767708,43.7072209]}},{"type":"Feature","properties":{"id":453,"name":"La Cereria","description":""},"geometry":{"type":"Point","coordinates":[10.4032134,43.7126382]}},{"type":"Feature","properties":{"id":443,"name":"Dantesca","description":""},"geometry":{"type":"Point","coordinates":[10.3983869,43.7179237]}},{"type":"Feature","properties":{"id":454,"name":"La Regginella","description":""},"geometry":{"type":"Point","coordinates":[10.4062497,43.7286613]}},{"type":"Feature","properties":{"id":444,"name":"Osteria dei Cavalieri","description":""},"geometry":{"type":"Point","coordinates":[10.399991,43.7186319]}},{"type":"Feature","properties":{"id":435,"name":"Ristoro al vecchio teatro","description":""},"geometry":{"type":"Point","coordinates":[10.397771,43.7177466]}},{"type":"Feature","properties":{"id":425,"name":"Zen Japonese","description":""},"geometry":{"type":"Point","coordinates":[10.3970626,43.720518]}},{"type":"Feature","properties":{"id":436,"name":"Bella Napoli","description":""},"geometry":{"type":"Point","coordinates":[10.4108351,43.7122008]}},{"type":"Feature","properties":{"id":426,"name":"Pizzeria L","description":""},"geometry":{"type":"Point","coordinates":[10.3996085,43.717791]}},{"type":"Feature","properties":{"id":437,"name":"Ristorante Cinese Giapponese Ni Hao Ciao","description":""},"geometry":{"type":"Point","coordinates":[10.4100814,43.7127552]}},{"type":"Feature","properties":{"id":427,"name":"Le Scuderie","description":""},"geometry":{"type":"Point","coordinates":[10.4022314,43.7125375]}},{"type":"Feature","properties":{"id":438,"name":"Wok World","description":""},"geometry":{"type":"Point","coordinates":[10.3907362,43.7250285]}},{"type":"Feature","properties":{"id":428,"name":"Il Toscano","description":""},"geometry":{"type":"Point","coordinates":[10.3979177,43.7224807]}},{"type":"Feature","properties":{"id":439,"name":"Bar Pizzeria Ristorante da Antonella e Umberto","description":""},"geometry":{"type":"Point","coordinates":[10.4203606,43.7264212]}},{"type":"Feature","properties":{"id":429,"name":"Il Turista","description":""},"geometry":{"type":"Point","coordinates":[10.3982967,43.7225482]}},{"type":"Feature","properties":{"id":430,"name":"Il Vicoletto","description":""},"geometry":{"type":"Point","coordinates":[10.4025436,43.7186245]}},{"type":"Feature","properties":{"id":431,"name":"Trattoria S. Omobono","description":""},"geometry":{"type":"Point","coordinates":[10.401397,43.7174516]}},{"type":"Feature","properties":{"id":432,"name":"Osteria Toscana","description":""},"geometry":{"type":"Point","coordinates":[10.4020527,43.7212633]}},{"type":"Feature","properties":{"id":433,"name":"Vineria di Piazza","description":""},"geometry":{"type":"Point","coordinates":[10.401856,43.71676]}},{"type":"Feature","properties":{"id":434,"name":"Pizzeria da Giorgio","description":""},"geometry":{"type":"Point","coordinates":[10.4036768,43.7171176]}},{"type":"Feature","properties":{"id":424,"name":"La Mescita","description":""},"geometry":{"type":"Point","coordinates":[10.4014298,43.7171663]}},{"type":"Feature","properties":{"id":421,"name":"Ristorante la Clessidra","description":""},"geometry":{"type":"Point","coordinates":[10.4007174,43.7185146]}},{"type":"Feature","properties":{"id":422,"name":"Pizzeria al Bagno di Nerone","description":""},"geometry":{"type":"Point","coordinates":[10.4019017,43.7219087]}},{"type":"Feature","properties":{"id":423,"name":"Pizzeria il Montino","description":""},"geometry":{"type":"Point","coordinates":[10.4015262,43.718138]}}]}