{"type":"FeatureCollection","features":[{"type":"Feature","properties":{"id":493,"name":"Bagus","description":""},"geometry":{"type":"Point","coordinates":[10.3999102,43.7146864]}},{"type":"Feature","properties":{"id":494,"name":"La Scaletta","description":""},"geometry":{"type":"Point","coordinates":[10.3894184,43.7272775]}},{"type":"Feature","properties":{"id":484,"name":"L","description":""},"geometry":{"type":"Point","coordinates":[10.3965292,43.7219276]}},{"type":"Feature","properties":{"id":495,"name":"Il Bistrot","description":""},"geometry":{"type":"Point","coordinates":[10.4012517,43.7143104]}},{"type":"Feature","properties":{"id":485,"name":"da","description":""},"geometry":{"type":"Point","coordinates":[10.4032495,43.7259901]}},{"type":"Feature","properties":{"id":496,"name":"Pizzeria SM","description":""},"geometry":{"type":"Point","coordinates":[10.4024765,43.7197507]}},{"type":"Feature","properties":{"id":486,"name":"Lo Schiaccianoci","description":""},"geometry":{"type":"Point","coordinates":[10.4004167,43.7093719]}},{"type":"Feature","properties":{"id":487,"name":"Al Signor Mimmo","description":""},"geometry":{"type":"Point","coordinates":[10.4003848,43.7176573]}},{"type":"Feature","properties":{"id":488,"name":"Ambarab\u00e0","description":""},"geometry":{"type":"Point","coordinates":[10.4000732,43.7171594]}},{"type":"Feature","properties":{"id":489,"name":"Forno dell","description":""},"geometry":{"type":"Point","coordinates":[10.3969022,43.7101534]}}]}